brs.clients = {
  "type": "FeatureCollection",
  "features": [
    {
      "type": "Feature",
      "properties": {
	  "Name": "Environmental Protection Agency (EPA)",
	  "Description":"Bright Rain provides development and consultation services to the EPA in support of mapping the results of the Clean Watersheeds Needs Survey (CWNS). Services include the development of a custom web mapping application in conjunction with an application developed and hosted within the EPA GeoPlatform."
	  },
      "geometry": {
        "type": "Point",
        "coordinates": [
			-77.0318100917701,
			38.8921484726012
        ]
      }
    },
	{
      "type": "Feature",
      "properties": {
	  "Name": "City of Seattle",
	  "Description":"Development of two web map applications using ArcGIS Server JavaScript API. A Construction Coordination map application designed to provide the public information about planned construction projects and events within the City, a Parking Locator map application designed to provide real-time information regarding parking options for the public within the City."
	  },
      "geometry": {
        "type": "Point",
        "coordinates": [
			-122.32993434446111,
			47.60509878517061 
        ]
      }
    },
	{
      "type": "Feature",
      "properties": {
	  "Name": "Colorado State Parks",
	  "Description":"Instrumental in completing a comprehensive survey study. Roles included mapping visitor distribution, data collection, data analysis and reporting. The results of which led to the publication of Colorado State Park's 1998 Visitation Study Report. Trail Use Distribution Study at Castlewood Canyon State Park using ArcView 3.2."
	  },
      "geometry": {
        "type": "Point",
        "coordinates": [
			-104.98522690607003,
			39.737095907943775 
        ]
      }
    },
	{
      "type": "Feature",
      "properties": {
	  "Name": "Episcopal Relief & Development",
	  "Description":"The Episcopal Relief & Development Monitoring and Evaluation Program Management System is a web based map application that supports aid programs from project budgeting to monitoring the progress of program efforts through final evaluation of the effectiveness of program and project activities."
	  },
      "geometry": {
        "type": "Point",
        "coordinates": [
			-73.97170550565944,
			40.7504852247058
        ]
      }
    },
	{
      "type": "Feature",
      "properties": {
	  "Name": "Antares Group",
	  "Description":"Map interface development of a web based contract management tool that facilitates the management of contractual obligations between crop producers and biomass processors. The front end technology uses the Leaflet mapping JavaScript library to present the user with an aerial base map along with a tile layer created with TileMill and hosted with MapBox that shows critical areas and labels. The user can interact with fields, storage and access locations managed as vector graphics as well as enter and search associated tabular data. The interface interacts with a backend api exposed via the ASP.Net MVC framework."
	  },
      "geometry": {
        "type": "Point",
        "coordinates": [
			-76.86883886210745,
			38.94890295535421 
        ]
      }
    },
	{
      "type": "Feature",
      "properties": {
	  "Name": "Infrastructure Technologies",
	  "Description":"Development of several commercial ArcMap extension products that extend IT pipe inspection software to integrate fully with GIS. These products are being developed using Visual Basic.Net."
	  },
      "geometry": {
        "type": "Point",
        "coordinates": [
			-106.61610932123618,
			35.13839931509316 
        ]
      }
    },
	{
      "type": "Feature",
      "properties": {
	  "Name": "GAD Group",
	  "Description":""
	  },
      "geometry": {
        "type": "Point",
        "coordinates": [
			-88.09659413742644,
			41.689527287322925
        ]
      }
    },
	{
      "type": "Feature",
      "properties": {
	  "Name": "PACE Engineers",
	  "Description":"Implemented GIS at several water and sewer utility districts including the development of custom applications in support of asset inventory with GPS, development of asset management systems using ESRI software, integration between legacy database systems and GIS, and creation of network models. Implementation of GIS based maintenance management systems."
	  },
      "geometry": {
        "type": "Point",
        "coordinates": [
			-122.1755858123437,
			47.67970127468457
        ]
      }
    },
	{
      "type": "Feature",
      "properties": {
	  "Name": "City of Sedro-Woolley WA",
	  "Description":"Provide GIS implementation and support services."
	  },
      "geometry": {
        "type": "Point",
        "coordinates": [
			-122.23843194962072,
			48.5065245653759 
        ]
      }
    },
	{
      "type": "Feature",
      "properties": {
	  "Name": "Your Castle Real Estate",
	  "Description":"Provide GIS implementation and support services."
	  },
      "geometry": {
        "type": "Point",
        "coordinates": [
			-105.06251795311569,
			39.955274371115564 
        ]
      }
    },
	{
      "type": "Feature",
      "properties": {
	  "Name": "Mt Baker - Snoqualmie National Forest",
	  "Description":""
	  },
      "geometry": {
        "type": "Point",
        "coordinates": [
			-121.41164951157562,
			47.41431506617226
        ]
      }
    }
  ]
}